,code,name,opening_year,latitude,longitude,avg_price
0,NS1,Jurong East,1990,1.33329506563598,103.742153884191,28.390541665137608
1,NS2,Bukit Batok,1990,1.34903534800639,103.749526027989,28.271091389479686
2,NS3,Bukit Gombak,1990,1.35866272149921,103.751913321513,27.99273283234706
3,NS4,Choa Chu Kang,1990,1.38536316540225,103.744370779756,22.422533022521062
4,NS5,Yew Tee,1996,1.39747594171731,103.747418249132,22.161991964738075
5,NS7,Kranji,1996,1.4250690629411,103.762099449562,
6,NS8,Marsiling,1996,1.43262603485889,103.774051197031,25.280100782231273
7,NS9,Woodlands,1996,1.43605761708128,103.787938777173,22.83718812078889
8,NS10,Admiralty,1996,1.44055609916205,103.800916952025,23.538805586557558
9,NS11,Sembawang,1996,1.44902668521092,103.820139486468,24.25546350838202
10,NS12,Canberra,2019,1.44307664075699,103.829702590959,27.86802079813597
11,NS13,Yishun,1988,1.4295887655538,103.835050382253,27.803050552857265
12,NS14,Khatib,1988,1.41758906054002,103.833061043125,26.048010089269223
13,NS15,Yio Chu Kang,1987,1.38168259989517,103.844991053696,30.098377725634872
14,NS16,Ang Mo Kio,1987,1.36993284962264,103.849558091776,30.736952668168176
15,NS17,Bishan,1987,1.35101889777844,103.850057208608,30.033693778468688
16,NS18,Braddell,1987,1.34010520696434,103.846755921048,32.94143409393124
17,NS19,Toa Payoh,1987,1.33259672794159,103.847577286075,32.85996771763214
18,NS20,Novena,1987,1.32021100706836,103.843656761867,30.924811774337016
19,NS21,Newton,1987,1.31257031730604,103.838031555215,
20,NS22,Orchard,1987,1.30304426265194,103.831375000068,
21,NS23,Somerset,1987,1.30025287710542,103.839158336848,
22,NS24,Dhoby Ghaut,1987,1.29868872290409,103.846179896647,39.92225198662709
23,NS25,City Hall,1987,1.29298990700923,103.852542630339,39.59191977136207
24,NS26,Raffles Place,1987,1.28393326234538,103.851463066212,44.71493212669683
25,NS27,Marina Bay,1989,1.27631114381584,103.854604975361,
26,NS28,Marina South Pier,2014,1.27102703612006,103.862447515736,
27,EW1,Pasir Ris,1989,1.37300805046319,103.949265083922,23.623615956308484
28,EW2,Tampines,1989,1.35515041120473,103.943009883131,27.88499389573192
29,EW3,Simei,1989,1.34316035195426,103.953347548212,26.522940868176658
30,EW4,Tanah Merah,1989,1.32701524290982,103.946155931882,29.991106753691668
31,EW5,Bedok,1989,1.32398845004421,103.930032476715,30.789605461665577
32,EW6,Kembangan,1989,1.32104702761608,103.91292554527,28.31555882089489
33,EW7,Eunos,1989,1.31978354916088,103.903225807255,31.31961561356115
34,EW8,Paya Lebar,1989,1.3172473854035,103.892260753884,31.290190962989513
35,EW9,Aljunied,1989,1.31644118834754,103.882964033576,31.528563357142442
36,EW10,Kallang,1989,1.31148890998818,103.871386541754,32.28747015175263
37,EW11,Lavender,1989,1.30739187893137,103.862784610013,36.343127147677606
38,EW12,Bugis,1989,1.30026468984101,103.855614760658,36.95682120550488
39,EW13,City Hall,1987,1.29298990700923,103.852542630339,39.59191977136207
40,EW14,Raffles Place,1987,1.28393326234538,103.851463066212,44.71493212669683
41,EW15,Tanjong Pagar,1987,1.27660857408421,103.846006679223,42.07656219649094
42,EW16,Outram Park,1987,1.2802415328084,103.840052100136,41.637463175791844
43,EW17,Tiong Bahru,1988,1.28619457890544,103.826998939732,37.06789367308969
44,EW18,Redhill,1988,1.28963453412887,103.81674097205,34.34449454397607
45,EW19,Queenstown,1988,1.29455085184931,103.806077155982,35.77731986692291
46,EW20,Commonwealth,1988,1.31511625277378,103.765191452888,34.05091121701772
47,EW21,Buona Vista,1988,1.30627534823257,103.790363200126,36.92450621363703
48,EW22,Dover,2001,1.31139153717332,103.778656381761,34.79841712443278
49,EW23,Clementi,1988,1.31511625277378,103.765191452888,34.05091121701772
50,EW24,Jurong East,1988,1.33329506563598,103.742153884191,28.390541665137608
51,EW25,Chinese Garden,1988,1.34224494823931,103.732766601621,28.39479897299018
52,EW26,Lakeside,1988,1.34425911493819,103.720949087456,27.27040503568603
53,EW27,Boon Lay,1990,1.33860405469845,103.706064622772,27.149573039502027
54,EW28,Pioneer,2009,1.33759355182117,103.697418455881,26.082570517412798
55,EW29,Joo Koon,2009,1.32769436492908,103.678085068438,
56,EW30,Gul Circle,2017,1.31947090075208,103.660530461345,
57,EW31,Tuas Crescent,2017,1.32102695598684,103.649078235627,
58,EW32,Tuas West Road,2017,1.32998504653102,103.639616648771,
59,EW33,Tuas Link,2017,1.34088242451105,103.636991425128,
60,CG1,Expo,2001,1.33538252614956,103.962374747451,27.035416697760173
61,CG2,Changi Airport,2002,1.35747897447692,103.98788356959,
62,NE1,HarbourFront,2003,1.26531139858465,103.820557316696,34.179455728995215
63,NE3,Outram Park,2003,1.2802415328084,103.840052100136,41.637463175791844
64,NE4,Chinatown,2003,1.2839640518753,103.843141945391,42.78000325247905
65,NE5,Clarke Quay,2003,1.28745211415803,103.846119192727,42.097836972822876
66,NE6,Dhoby Ghaut,2003,1.29868872290409,103.846179896647,39.92225198662709
67,NE7,Little India,2003,1.30724381608438,103.849841614124,35.89521996083677
68,NE8,Farrer Park,2003,1.31314029963164,103.854754721344,34.41978778361323
69,NE9,Boon Keng,2003,1.3199433920787,103.861746337392,33.16216127576393
70,NE10,Potong Pasir,2003,1.33137808528793,103.869363547741,30.879768184209627
71,NE11,Woodleigh,2011,1.33982824592182,103.87096088798,30.442566247717405
72,NE12,Serangoon,2003,1.3510482896351,103.871070417199,31.471021972945685
73,NE13,Kovan,2003,1.35990191952976,103.884494725197,26.888211466524556
74,NE14,Hougang,2003,1.37033472429161,103.892261757937,26.660729609489017
75,NE15,Buangkok,2006,1.38369417199994,103.893049981318,25.598426290860807
76,NE16,Sengkang,2003,1.39174613283898,103.895508171163,25.64327400465017
77,NE17,Punggol,2003,1.40439782602064,103.902044299842,28.29122859367394
78,CC1,Dhoby Ghaut,2010,1.29868872290409,103.846179896647,39.92225198662709
79,CC2,Bras Basah,2010,1.2967526221395,103.850918752694,39.59090855336848
80,CC3,Esplanade,2010,1.29309408587041,103.855583933723,39.59191977136207
81,CC4,Promenade,2010,1.29307389602149,103.861067235865,39.05917134037651
82,CC5,Nicoll Highway,2010,1.29976684675139,103.86363696572,36.64666502820717
83,CC6,Stadium,2010,1.3028124684707,103.875337711089,29.761978303036692
84,CC7,Mountbatten,2010,1.30615406128913,103.883045148696,33.1687654191105
85,CC8,Dakota,2010,1.30843144331463,103.889268208422,32.907706298975455
86,CC9,Paya Lebar,2010,1.3172473854035,103.892260753884,31.290190962989513
87,CC10,MacPherson,2010,1.32683963232487,103.890007860464,34.3532181607334
88,CC11,Tai Seng,2010,1.33514564170352,103.888336109832,32.02965276201242
89,CC12,Bartley,2009,1.3424454382925,103.880197087117,25.072697530204426
90,CC13,Serangoon,2009,1.3510482896351,103.871070417199,31.471021972945685
91,CC14,Lorong Chuan,2009,1.35153128621585,103.864812169514,32.54892935196598
92,CC15,Bishan,2009,1.35101889777844,103.850057208608,30.033693778468688
93,CC16,Marymount,2009,1.34870726290354,103.839423132604,31.91090450912152
94,CC17,Caldecott,2011,1.33734722320212,103.839544077561,33.947329161496064
95,CC19,Botanic Gardens,2011,1.32238699517166,103.815385463093,
96,CC20,Farrer Road,2011,1.31743915158967,103.807379214161,
97,CC21,Holland Village,2011,1.31226422601049,103.796470444998,38.28175772446847
98,CC22,Buona Vista,2011,1.30627534823257,103.790363200126,36.92450621363703
99,CC23,one-north,2011,1.29975987493555,103.78745750525,34.41173809811846
100,CC24,Kent Ridge,2011,1.29356390505771,103.784569394529,
101,CC25,Haw Par Villa,2011,1.28195688684898,103.781988990137,28.240993864285276
102,CC26,Pasir Panjang,2011,1.27621352233766,103.791350313288,28.240993864285276
103,CC27,Labrador Park,2011,1.27236838626952,103.803416232089,34.63046095945233
104,CC28,Telok Blangah,2011,1.27070647772509,103.809761611219,34.517861431249386
105,CC29,HarbourFront,2011,1.26531139858465,103.820557316696,34.179455728995215
106,CE1,Bayfront,2012,1.28187378851834,103.859079765146,
107,CE2,Marina Bay,2012,1.27631114381584,103.854604975361,
108,DT1,Bukit Panjang,2015,1.37956121236613,103.761188866252,24.944646573443887
109,DT2,Cashew,2015,1.36984601365741,103.764315051619,24.034270861140293
110,DT3,Hillview,2015,1.36288845715168,103.767780907707,
111,DT5,Beauty World,2015,1.34090149001429,103.775746717778,26.739289724293517
112,DT6,King Albert Park,2015,1.335893496278,103.783235863233,25.57878403497435
113,DT7,Sixth Avenue,2015,1.33096058134451,103.796969279733,
114,DT8,Tan Kah Kee,2015,1.32639224146351,103.806548201692,
115,DT9,Botanic Gardens,2015,1.32238699517166,103.815385463093,
116,DT10,Stevens,2015,1.32006555750626,103.826024401924,
117,DT11,Newton,2015,1.31257031730604,103.838031555215,
118,DT12,Little India,2015,1.30724381608438,103.849841614124,35.89521996083677
119,DT13,Rochor,2015,1.30385218555028,103.852769429428,37.39531568601374
120,DT14,Bugis,2013,1.30026468984101,103.855614760658,36.95682120550488
121,DT15,Promenade,2013,1.29307389602149,103.861067235865,39.05917134037651
122,DT16,Bayfront,2013,1.28187378851834,103.859079765146,
123,DT17,Downtown,2013,1.27944638178916,103.852840829581,47.42063492063492
124,DT18,Telok Ayer,2013,1.28206894769394,103.848648781083,43.44640686474712
125,DT19,Chinatown,2013,1.2839640518753,103.843141945391,42.78000325247905
126,DT20,Fort Canning,2017,1.29248194822996,103.844331362465,42.77922800774971
127,DT21,Bencoolen,2017,1.29891843369422,103.850353762717,38.478153340025266
128,DT22,Jalan Besar,2017,1.3051713878069,103.855295713435,36.74361999391392
129,DT23,Bendemeer,2017,1.31367252847691,103.862977620945,34.46621755717371
130,DT24,Geylang Bahru,2017,1.32130110228321,103.871622627142,32.911732747343244
131,DT25,Mattar,2017,1.32687671501334,103.883247509542,33.68771741905767
132,DT26,MacPherson,2017,1.32683963232487,103.890007860464,34.3532181607334
133,DT27,Ubi,2017,1.32997425973974,103.899226655439,29.507861999559367
134,DT28,Kaki Bukit,2017,1.33496735995428,103.908459338046,27.80695417623389
135,DT29,Bedok North,2017,1.33474211664091,103.91797832995,29.04993967446961
136,DT30,Bedok Reservoir,2017,1.33660782955099,103.932234623286,29.480835311852637
137,DT31,Tampines West,2017,1.3456336579777,103.938492495285,26.804854134781007
138,DT32,Tampines,2017,1.35515041120473,103.943009883131,27.88499389573192
139,DT33,Tampines East,2017,1.35619148271544,103.9546344625,26.670699887618735
140,DT34,Upper Changi,2017,1.34173977444995,103.961472788634,26.307044883555413
141,DT35,Expo,2017,1.33538252614956,103.962374747451,27.035416697760173
142,TE1,Woodlands North,2020,1.44829245259621,103.785692682441,21.294145948937658
143,TE2,Woodlands,2020,1.43605761708128,103.787938777173,22.83718812078889
144,TE3,Woodlands South,2020,1.42739605281442,103.79326432221,23.302750438627804
145,TE4,Springleaf,2021,1.39758106126824,103.817856949947,
146,TE5,Lentor,2021,1.38550657972169,103.835743809669,30.506030795002705
147,TE6,Mayflower,2021,1.37146318831015,103.836567766945,30.211961614921155
148,TE7,Bright Hill,2021,1.36328318545185,103.832893619992,29.70300491243666
149,TE8,Upper Thomson,2021,1.35441643365401,103.832898468504,30.347098937199906
150,TE9,Caldecott,2021,1.33734722320212,103.839544077561,33.947329161496064
151,TE11,Stevens,2022,1.32006555750626,103.826024401924,
152,TE12,Napier,2022,1.30678223364785,103.818956796815,
153,TE13,Orchard Boulevard,2022,1.30242224836722,103.823868523249,
154,TE14,Orchard,2022,1.30304426265194,103.831375000068,
155,TE15,Great World,2022,1.29394816169384,103.833720837731,38.71279835771087
156,TE16,Havelock,2022,1.28850523975311,103.833585838226,38.08872132853339
157,TE17,Outram Park,2022,1.2802415328084,103.840052100136,41.637463175791844
158,TE18,Maxwell,2022,1.28053329842878,103.843883670633,41.82939165927414
159,TE19,Shenton Way,2022,1.2777168283425,103.850367596067,43.26397607035768
160,TE20,Marina Bay,2022,1.27631114381584,103.854604975361,
161,TE22,Gardens by the Bay,2022,1.27848725876303,103.867454664421,
